[
    {
      "restaurant_category_id": 1,
      "name": "Noble House",
      "address": "Hilton Cairo Heliopolis Uruba Street, Heliopolis.",
      "phone": "+20222677730",
      "lat": 30.105563070530454,
      "long": 31.366674400772897,
      "image": "restaurant_1.jpg"
    },
    {
      "restaurant_category_id": 1,
      "name": "Kamala at Condrad Cairo",
      "address": "1191 Nile Corniche Inside Conrad Cairo",
      "phone": "+20225808481",
      "lat": 30.065869267797503,
      "long": 31.22755250814251,
      "image": "restaurant_2.jpg"
    },
    {
      "restaurant_category_id": 1,
      "name": "Sapporo Japanese",
      "address": "1 Galaa Square, Dokki Sheraton Cairo Hotel & Casino, Giza",
      "phone": "+201022216883",
      "lat": 30.041867564546514,
      "long": 31.220298529829407,
      "image": "restaurant_3.jpg"
    },
    {
      "restaurant_category_id": 1,
      "name": "Gitadel Grill",
      "address": "1115 Corniche El Nile Ramses Hilton, Cairo",
      "phone": 201012440224,
      "lat": 30.049734463942222,
      "long": 31.233221098510036,
      "image": "restaurant_4.jpg"
    },
    {
      "restaurant_category_id": 1,
      "name": "Catchy Seafood",
      "address": "15 May Bridge, Cairo 3753450 Egypt",
      "phone": "01277119888",
      "lat": null,
      "long": null,
      "image": "restaurant_5.jpg"
    },
    {
      "restaurant_category_id": 1,
      "name": "The Smokery Hellopolis",
      "address": "58 Beirut Street, Heliopolis Heliopolis, Cairo",
      "phone": 201286830199,
      "lat": 30.093620734542256,
      "long": 31.327540086512116,
      "image": "restaurant_6.jpg"
    },
    {
      "restaurant_category_id": 1,
      "name": "Rossini",
      "address": "66 Omar Ibn El Khattab St, Cairo",
      "phone": 201228437342,
      "lat": 30.093648582525546,
      "long": 31.34067640922034,
      "image": "restaurant_7.jpg"
    },
    {
      "restaurant_category_id": 1,
      "name": "Asmak",
      "address": "Concord Plaza Mall Tesseen St., Cairo",
      "phone": 201003527777,
      "lat": 30.025538930590255,
      "long": 31.48427538376619,
      "image": "restaurant_8.jpg"
    },
    {
      "restaurant_category_id": 1,
      "name": "Fish Market",
      "address": "Corniche El Maadi Opp. Maadi Second Entrance, Cairo",
      "phone": "+2016770",
      "lat": null,
      "long": null,
      "image": "restaurant_9.jpg"
    },
    {
      "restaurant_category_id": 1,
      "name": "Kadoura Fish",
      "address": "66 Gameat el Dowal El Arabia St. Al Mohandessine, Cairo",
      "phone": 20237608660,
      "lat": 30.05110136405353,
      "long": 31.199644407544287,
      "image": "restaurant_10.jpg"
    },



  {
    "restaurant_category_id": 2,
    "name": "Xodo",
    "address": "136 Nile Street, Cairo",
    "phone": 20235671870,
    "lat": null,
    "long": null,
    "image": "restaurant_A_1.jpg"
  },
  {
    "restaurant_category_id": 2,
    "name": "BBQ Mawlana",
    "address": "10 Al Mansoureya Road, Mashaal, Giza",
    "phone": 201001212187,
    "lat": 29.98829951034657,
    "long": 31.140394969319832,
    "image": "restaurant_A_2.jpg"
  },
  {
    "restaurant_category_id": 2,
    "name": "Nisantasi",
    "address": "City Stars Mall Phase 1, Level 5, Cairo",
    "phone": 201222533336,
    "lat": 30.073889509420887,
    "long": 31.346302808479557,
    "image": "restaurant_A_3.jpg"
  },
  {
    "restaurant_category_id": 2,
    "name": "Bab El-Sharq",
    "address": "1113 Corniche El Nil The Nile Ritz Carlton , ground Floor",
    "phone": 20225778899,
    "lat": 30.045732183561473,
    "long": 31.232328248208443,
    "image": "restaurant_A_4.jpg"
  },
  {
    "restaurant_category_id": 2,
    "name": "Al Khal",
    "address": "InterContinental Cairo Citystars Omar Bin Khattab Street, cairo",
    "phone": 20224800009,
    "lat": 30.07248570494805,
    "long": 31.34849734489415,
    "image": "restaurant_A_5.jpg"
  },



  
  {
    "restaurant_category_id": 3,
    "name": "Piccolo Mondo",
    "address": "Saray El Gezirah St Saray El Gezirah St., El-Khalig, Zamalek, Cairo",
    "phone": 20227350174,
    "lat": null,
    "long": null,
    "image": "restaurant_B_1.jpg"
  },
  {
    "restaurant_category_id": 3,
    "name": "Bellini Cocktail Lounge",
    "address": "InterContinental Cairo Citystars, In Hotel - Lobby Level Omar Ibn El Khattab St., Cairo",
    "phone": 20224800009,
    "lat": 30.072647513789573,
    "long": 31.346936653915694,
    "image": "restaurant_B_2.jpg"
  },
  {
    "restaurant_category_id": 3,
    "name": "Cucina",
    "address": "JW Marriott Hotel, Ring Road, Mirage City Ring Road - Mirage City, Cairo",
    "phone": 20224115588,
    "lat": 30.0728554323356,
    "long": 31.434966953900048,
    "image": "restaurant_B_3.jpg"
  },
  {
    "restaurant_category_id": 3,
    "name": "Leonardo Ristorante",
    "address": "Hilton Cairo Heliopolis Al Orouba Street, Heliopolis, Cairo",
    "phone": 20222677730,
    "lat": 30.105292453580144,
    "long": 31.36400524158334,
    "image": "restaurant_B_4.jpg"
  },
  {
    "restaurant_category_id": 3,
    "name": "Pane Vino",
    "address": "Corniche El Nile Semiramis Intercontinental Hotel, Cairo",
    "phone": 20227988188,
    "lat": 30.086967377663164,
    "long": 31.234334799910364,
    "image": "restaurant_B_5.jpg"
  },
  {
    "restaurant_category_id": 3,
    "name": "Lucca",
    "address": "Royal Maxim Palace Kempinski Cairo, First Settlement, New Cairo First Settlement, New Cairo, Cairo",
    "phone": 201097111151,
    "lat": 30.061135598654737,
    "long": 31.418258416977793,
    "image": "restaurant_B_6.jpg"
  },




  {
    "restaurant_category_id": 4,
    "name": "Koshary Abou Tarek",
    "address": "16 Maarouf St., Champollion Rd Near To High Court House, Cairo",
    "phone": 20225775935,
    "lat": 30.05114023906603,
    "long": 31.23812823027709,
    "image": "restaurant_C_1.jpg"
  },
  {
    "restaurant_category_id": 4,
    "name": "Kazaz",
    "address": "38 Sabry Abou Alam St. Off Talaat Harb Sq. In Front Of Sidnawy, Cairo 11511 Egypt",
    "phone": 201140080704,
    "lat": 30.04890482696252,
    "long": 31.237876839189525,
    "image": "restaurant_C_2.jpg"
  },
  {
    "restaurant_category_id": 4,
    "name": "Gad",
    "address": "125 Azhar St., Cairo",
    "phone": 20225145900,
    "lat": 30.046753204850976,
    "long": 31.26062256189378,
    "image": "restaurant_C_3.jpg"
  },
  {
    "restaurant_category_id": 4,
    "name": "Semsema",
    "address": "6 Dokki St. Zayed Downtown - Shaikh Zayed Branch, Giza",
    "phone": 20237613522,
    "lat": 30.035346988840566,
    "long": 31.213818920562446,
    "image": "restaurant_C_4.jpg"
  },
  {
    "restaurant_category_id": 4,
    "name": "City Stars' foodcourt",
    "address": "City Stars Mall, Phase 1, Food Court, Cairo",
    "phone": 0,
    "lat": 30.074122113991894,
    "long": 31.345171872017524,
    "image": "restaurant_C_5.jpg"
  },

  
  {
    "restaurant_category_id": 5,
    "name": "The View Restaurant",
    "address": "29A Cornish El Nil Maadi, Cairo",
    "phone": 20225260601,
    "lat": 29.95980172694686,
    "long": 31.248579749398285,
    "image": "restaurant_D_1.jpg"
  },
  {
    "restaurant_category_id": 5,
    "name": "Raj",
    "address": "Hilton Cairo Heliopolis Al Orouba Street ,, Cairo",
    "phone": 20222677730,
    "lat": 30.10660918739972,
    "long": 31.365155364331816,
    "image": "restaurant_D_2.jpg"
  },
  {
    "restaurant_category_id": 5,
    "name": "Culina",
    "address": "1113 Corniche El Nil Street The Nile Ritz-Carlton, Downtown, Cairo",
    "phone": 20225778899,
    "lat": 30.048199537906925,
    "long": 31.22881425721506,
    "image": "restaurant_D_3.jpg"
  },
  {
    "restaurant_category_id": 5,
    "name": "Maat",
    "address": "53 Abou El-feda Biota Complex, Cairo",
    "phone": 201030022000,
    "lat": 30.072748497083232,
    "long": 31.223381699430355,
    "image": "restaurant_D_4.jpg"
  },
  {
    "restaurant_category_id": 5,
    "name": "The Blue Restaurant & Grill",
    "address": "12 Ahmed Ragheb Street Garden City, Cairo",
    "phone": 20227980000,
    "lat": 30.039055837115292,
    "long": 31.23204039566778,
    "image": "restaurant_D_5.jpg"
  },
  {
    "restaurant_category_id": 5,
    "name": "Indira Indian Restaurant",
    "address": "Holiday Inn Cairo Citystars Ali Rashed Street, Cairo",
    "phone": 20224803007,
    "lat": 30.077314595545303,
    "long": 31.34402800849797,
    "image": "restaurant_D_7.jpg"
  }

    
  ]